//うどん屋の情報を配列に格納
[
  {
    "name": "田村　うどん店",
    "lat": 34.266506,
    "lng": 133.935356,
    "jimoto_flag": true,
    "url": "https://tabelog.com/kagawa/A3702/A370202/37000077/",
    "comment":"かけと醤油うどんが専門！"
  },
  {
    "name": "本格手打ちうどん　おか泉",
    "lat": 34.309448,
    "lng": 133.821113,
    "jimoto_flag": true,
    "url": "https://tabelog.com/kagawa/A3702/A370202/37000074/",
    "comment":"てんぷらがでかい！"
  },
  {
    "name": "麦のへそ",
    "lat":  34.258548,
    "lng": 133.768095,
    "jimoto_flag": true,
    "url": "https://tabelog.com/kagawa/A3702/A370202/37007412/",
    "comment":"多度津といえばここ！"
  },
  {
    "name": "麺処　綿谷",
    "lat": 34.296236,
    "lng": 133.796047,
    "jimoto_flag": true,
    "url": "https://tabelog.com/kagawa/A3702/A370202/37000289/",
    "comment":"安くてボリューム満点！"
  },
  {
    "name": "山越うどん",
    "lat": 34.225816,
    "lng": 133.928616,
    "jimoto_flag": true,
    "url": "https://tabelog.com/kagawa/A3702/A370202/37000080/",
    "comment":"元祖釜玉うどん！"
  },
  {
    "name": "根ッ子うどん",
    "lat": 34.258709,
    "lng": 133.75253,
    "jimoto_flag": true,
    "url": "https://tabelog.com/kagawa/A3702/A370202/37000533/",
    "comment":"超近所！"
  },
  {
    "name": "はりや",
    "lat": 34.349348,
    "lng": 134.015145,
    "jimoto_flag": true,
    "url": "https://tabelog.com/kagawa/A3701/A370101/37000049/",
    "comment":"はりやといえばざるうどん！"
  },
  {
    "name": "うどん　一福",
    "lat": 34.308049,
    "lng": 133.975292,
    "jimoto_flag": true,
    "url": "https://tabelog.com/kagawa/A3701/A370101/37001209/",
    "comment":"肉うどんがサイコー！"
  }
]